[
  {
    "model": "schools.primaryschool",
    "pk": 1,
    "fields": {
      "name": "Valour Primary School",
      "geometry": "SRID=4326;POINT (103.8995102 1.4065167)",
      "address": "49 Punggol Central",
      "postal_code": "828728",
      "phone_number": "6242639",
      "email_address": "valour_ps@moe.edu.sg",
      "website_url": ""
    }
  },
  {
    "model": "schools.primaryschool",
    "pk": 2,
    "fields": {
      "name": "Zhangde Primary School",
      "geometry": "SRID=4326;POINT (103.825951875662 1.28421153335382)",
      "address": "51 Jalan Membina",
      "postal_code": "169485",
      "phone_number": "6274035",
      "email_address": "zhangde_ps@moe.edu.sg",
      "website_url": "http://www.zhangdepri.moe.edu.sg/"
    }
  },
  {
    "model": "schools.primaryschool",
    "pk": 3,
    "fields": {
      "name": "Yumin Primary School",
      "geometry": "SRID=4326;POINT (103.950461927088 1.35129177656982)",
      "address": "3 Tampines Street 21",
      "postal_code": "529393",
      "phone_number": "6781126",
      "email_address": "yumin_ps@moe.edu.sg",
      "website_url": "http://www.yuminpri.moe.edu.sg"
    }
  },
  {
    "model": "schools.primaryschool",
    "pk": 4,
    "fields": {
      "name": "Yuhua Primary School",
      "geometry": "SRID=4326;POINT (103.741105772644 1.34280230475035)",
      "address": "158 Jurong East Street 24",
      "postal_code": "609558",
      "phone_number": "6560506",
      "email_address": "yuhua_ps@moe.edu.sg",
      "website_url": "http://www.yuhuapri.moe.edu.sg"
    }
  },
  {
    "model": "schools.primaryschool",
    "pk": 5,
    "fields": {
      "name": "Yu Neng Primary School",
      "geometry": "SRID=4326;POINT (103.932150334643 1.33388900977814)",
      "address": "56 Bedok North St 3",
      "postal_code": "469623",
      "phone_number": "6449012",
      "email_address": "ynps@moe.edu.sg",
      "website_url": "http://www.ynps.moe.edu.sg/"
    }
  },
  {
    "model": "schools.primaryschool",
    "pk": 6,
    "fields": {
      "name": "Yio Chu Kang Primary School",
      "geometry": "SRID=4326;POINT (103.885643682171 1.37793264345278)",
      "address": "1 Hougang Street 51",
      "postal_code": "538720",
      "phone_number": "6385136",
      "email_address": "admin_yckps@moe.edu.sg",
      "website_url": "http://www.yiochukangpri.moe.edu.sg"
    }
  },
  {
    "model": "schools.primaryschool",
    "pk": 7,
    "fields": {
      "name": "Yew Tee Primary School",
      "geometry": "SRID=4326;POINT (103.750985967346 1.39676600905038)",
      "address": "10 Choa Chu Kang St 64",
      "postal_code": "689100",
      "phone_number": "6767002",
      "email_address": "ytps@moe.edu.sg",
      "website_url": "http://www.yewteepri.moe.edu.sg"
    }
  },
  {
    "model": "schools.primaryschool",
    "pk": 8,
    "fields": {
      "name": "Yangzheng Primary School",
      "geometry": "SRID=4326;POINT (103.868349549195 1.3489737533151)",
      "address": "15 Serangoon Avenue 3",
      "postal_code": "556108",
      "phone_number": "6284629",
      "email_address": "yzps@moe.edu.sg",
      "website_url": "http://www.yangzhengpri.moe.edu.sg/"
    }
  },
  {
    "model": "schools.primaryschool",
    "pk": 9,
    "fields": {
      "name": "Xinmin Primary School",
      "geometry": "SRID=4326;POINT (103.883080767491 1.37139548941933)",
      "address": "9 Hougang Avenue 8",
      "postal_code": "538784",
      "phone_number": "6283547",
      "email_address": "xinmin_ps@moe.edu.sg",
      "website_url": "http://www.xinminpri.moe.edu.sg/"
    }
  },
  {
    "model": "schools.primaryschool",
    "pk": 10,
    "fields": {
      "name": "Woodlands Primary School",
      "geometry": "SRID=4326;POINT (103.791570546509 1.43655108594233)",
      "address": "10 Woodlands Drive 50",
      "postal_code": "738853",
      "phone_number": "6269741",
      "email_address": "wdp@moe.edu.sg",
      "website_url": "http://www.woodlandspri.moe.edu.sg"
    }
  },
  {
    "model": "schools.primaryschool",
    "pk": 11,
    "fields": {
      "name": "Townsville Primary School",
      "geometry": "SRID=4326;POINT (103.853826048328 1.36003263719251)",
      "address": "3 Ang Mo Kio Ave 10",
      "postal_code": "569730",
      "phone_number": "6457434",
      "email_address": "townsvilleps@moe.edu.sg",
      "website_url": "http://www.townsvillepri.moe.edu.sg/"
    }
  },
  {
    "model": "schools.primaryschool",
    "pk": 12,
    "fields": {
      "name": "Temasek Primary School",
      "geometry": "SRID=4326;POINT (103.945590669163 1.31770677551335)",
      "address": "501 Bedok South Ave 3",
      "postal_code": "469300",
      "phone_number": "6443813",
      "email_address": "temasek_ps@moe.edu.sg",
      "website_url": "http://www.temasekpri.moe.edu.sg"
    }
  },
  {
    "model": "schools.primaryschool",
    "pk": 13,
    "fields": {
      "name": "Telok Kurau Primary School",
      "geometry": "SRID=4326;POINT (103.910934011337 1.3310458544135)",
      "address": "50 Bedok Reservoir Rd",
      "postal_code": "479239",
      "phone_number": "6244160",
      "email_address": "telokkuraups@moe.edu.sg",
      "website_url": "http://www.telokkuraupri.moe.edu.sg"
    }
  },
  {
    "model": "schools.primaryschool",
    "pk": 14,
    "fields": {
      "name": "Tao Nan School",
      "geometry": "SRID=4326;POINT (103.911553152326 1.30528528687323)",
      "address": "49 Marine Crescent",
      "postal_code": "449761",
      "phone_number": "6442830",
      "email_address": "taonan_sch@moe.edu.sg",
      "website_url": "http://www.taonan.moe.edu.sg"
    }
  },
  {
    "model": "schools.primaryschool",
    "pk": 15,
    "fields": {
      "name": "Tanjong Katong Primary School",
      "geometry": "SRID=4326;POINT (103.9363866 1.3246555)",
      "address": "10 Seraya Road",
      "postal_code": "437259",
      "phone_number": "6344472",
      "email_address": "tkps@moe.edu.sg",
      "website_url": "http://www.tanjongkatongpri.moe.edu.sg/"
    }
  },
  {
    "model": "schools.primaryschool",
    "pk": 16,
    "fields": {
      "name": "Tampines Primary School",
      "geometry": "SRID=4326;POINT (103.944004684986 1.34977870805929)",
      "address": "250 Tampines Street 12",
      "postal_code": "529426",
      "phone_number": "6783119",
      "email_address": "tpps@moe.edu.sg",
      "website_url": "http://www.tampinespri.moe.edu.sg"
    }
  },
  {
    "model": "schools.primaryschool",
    "pk": 17,
    "fields": {
      "name": "Tampines North Primary School",
      "geometry": "SRID=4326;POINT (103.948725782833 1.36047641484685)",
      "address": "30 Tampines Avenue 9",
      "postal_code": "529565",
      "phone_number": "6785432",
      "email_address": "tnps@moe.edu.sg",
      "website_url": "http://www.tampinesnorthpri.moe.edu.sg"
    }
  },
  {
    "model": "schools.primaryschool",
    "pk": 18,
    "fields": {
      "name": "Stamford Primary School",
      "geometry": "SRID=4326;POINT (103.857453500579 1.3034563846745)",
      "address": "1 Victoria Lane",
      "postal_code": "198423",
      "phone_number": "6294507",
      "email_address": "stamford_ps@moe.edu.sg",
      "website_url": "http://www.stamfordpri.moe.edu.sg"
    }
  },
  {
    "model": "schools.primaryschool",
    "pk": 19,
    "fields": {
      "name": "St. Anthony\u2019s Canossian Primary School",
      "geometry": "SRID=4326;POINT (103.941234868202 1.33472537301892)",
      "address": "1602 Bedok North Ave 4",
      "postal_code": "469701",
      "phone_number": "6449223",
      "email_address": "sacps@moe.edu.sg",
      "website_url": "http://www.stanthonyscanossianpri.moe.edu.sg"
    }
  },
  {
    "model": "schools.primaryschool",
    "pk": 20,
    "fields": {
      "name": "South View Primary School",
      "geometry": "SRID=4326;POINT (103.746275846011 1.38166664389752)",
      "address": "6 Choa Chu Kang Central",
      "postal_code": "689762",
      "phone_number": "6769717",
      "email_address": "svps@moe.edu.sg",
      "website_url": "http://www.southviewpri.moe.edu.sg"
    }
  },
  {
    "model": "schools.primaryschool",
    "pk": 21,
    "fields": {
      "name": "Si Ling Primary School",
      "geometry": "SRID=4326;POINT (103.786035065192 1.43240935732527)",
      "address": "61 Woodlands Avenue 1",
      "postal_code": "739067",
      "phone_number": "6269883",
      "email_address": "slps@moe.edu.sg",
      "website_url": "http://www.silingpri.moe.edu.sg"
    }
  },
  {
    "model": "schools.primaryschool",
    "pk": 22,
    "fields": {
      "name": "Shuqun Primary School",
      "geometry": "SRID=4326;POINT (103.721523713379 1.34765311431636)",
      "address": "8 Jurong West Street 51",
      "postal_code": "649332",
      "phone_number": "6563712",
      "email_address": "sqps@moe.edu.sg",
      "website_url": "http://www.shuqunpri.moe.edu.sg"
    }
  },
  {
    "model": "schools.primaryschool",
    "pk": 23,
    "fields": {
      "name": "Sembawang Primary School",
      "geometry": "SRID=4326;POINT (103.821042374036 1.44507371552624)",
      "address": "10 Sembawang Drive",
      "postal_code": "757715",
      "phone_number": "6756733",
      "email_address": "sembawang_ps@moe.edu.sg",
      "website_url": "http://www.sembawangpri.moe.edu.sg"
    }
  },
  {
    "model": "schools.primaryschool",
    "pk": 24,
    "fields": {
      "name": "Rosyth School",
      "geometry": "SRID=4326;POINT (103.875001549174 1.37289067499066)",
      "address": "21 Serangoon North Avenue 4",
      "postal_code": "555855",
      "phone_number": "6481227",
      "email_address": "rosyth_sch@moe.edu.sg",
      "website_url": "http://www.rosyth.moe.edu.sg"
    }
  },
  {
    "model": "schools.primaryschool",
    "pk": 25,
    "fields": {
      "name": "Red Swastika School",
      "geometry": "SRID=4326;POINT (103.934332314404 1.33324297847733)",
      "address": "350 Bedok North Avenue 3",
      "postal_code": "469719",
      "phone_number": "6443038",
      "email_address": "redswastika@moe.edu.sg",
      "website_url": "http://www.redswastika.moe.edu.sg"
    }
  },
  {
    "model": "schools.primaryschool",
    "pk": 26,
    "fields": {
      "name": "Punggol View Primary School",
      "geometry": "SRID=4326;POINT (103.905156371376 1.40514582647964)",
      "address": "9 Punggol Place",
      "postal_code": "828845",
      "phone_number": "6570158",
      "email_address": "punggolview_ps@moe.edu.sg",
      "website_url": "http://www.punggolviewpri.moe.edu.sg",
      "kindergartens": [
        456
      ]
    }
  },
  {
    "model": "schools.primaryschool",
    "pk": 27,
    "fields": {
      "name": "Punggol Primary School",
      "geometry": "SRID=4326;POINT (103.894506933396 1.37779451245844)",
      "address": "61 Hougang Avenue 8",
      "postal_code": "538787",
      "phone_number": "6385076",
      "email_address": "punggol_ps@moe.edu.sg",
      "website_url": "http://www.punggolpri.moe.edu.sg/"
    }
  },
  {
    "model": "schools.primaryschool",
    "pk": 28,
    "fields": {
      "name": "Punggol Green Primary School",
      "geometry": "SRID=4326;POINT (103.898801330302 1.40187220643297)",
      "address": "98 Punggol Walk",
      "postal_code": "828772",
      "phone_number": "6538301",
      "email_address": "admin_punggolgreen_ps@moe.edu.sg",
      "website_url": "http://www.punggolgreenpri.moe.edu.sg",
      "kindergartens": [
        458
      ]
    }
  },
  {
    "model": "schools.primaryschool",
    "pk": 29,
    "fields": {
      "name": "Pioneer Primary School",
      "geometry": "SRID=4326;POINT (103.695003812477 1.34883617453429)",
      "address": "23 Jurong West Street 81",
      "postal_code": "649076",
      "phone_number": "6793239",
      "email_address": "pioneer_ps@moe.edu.sg",
      "website_url": "http://www.pioneerpri.moe.edu.sg"
    }
  },
  {
    "model": "schools.primaryschool",
    "pk": 30,
    "fields": {
      "name": "Pei Hwa Presbyterian Primary School",
      "geometry": "SRID=4326;POINT (103.776108247761 1.33805507824253)",
      "address": "7 Pei Wah Avenue",
      "postal_code": "597610",
      "phone_number": "6466378",
      "email_address": "phpps@moe.edu.sg",
      "website_url": "http://www.peihwapresbyterianpri.moe.edu.sg/"
    }
  },
  {
    "model": "schools.primaryschool",
    "pk": 31,
    "fields": {
      "name": "Pei Chun Public School",
      "geometry": "SRID=4326;POINT (103.858628716978 1.33274088113984)",
      "address": "16 Lorong 7 Toa Payoh",
      "postal_code": "319320",
      "phone_number": "6353945",
      "email_address": "pcps@moe.edu.sg",
      "website_url": "http://www.peichunpublic.moe.edu.sg"
    }
  },
  {
    "model": "schools.primaryschool",
    "pk": 32,
    "fields": {
      "name": "Pasir Ris Primary School",
      "geometry": "SRID=4326;POINT (103.962807212116 1.37241870245533)",
      "address": "5 Pasir Ris Street 21",
      "postal_code": "518968",
      "phone_number": "6582260",
      "email_address": "prps@moe.edu.sg",
      "website_url": "http://www.pasirrispri.moe.edu.sg"
    }
  },
  {
    "model": "schools.primaryschool",
    "pk": 33,
    "fields": {
      "name": "Palm View Primary School",
      "geometry": "SRID=4326;POINT (103.891354675017 1.38376923022127)",
      "address": "150 Compassvale Bow",
      "postal_code": "544822",
      "phone_number": "6508730",
      "email_address": "palmview_ps@moe.edu.sg",
      "website_url": "http://www.palmviewpri.moe.edu.sg"
    }
  },
  {
    "model": "schools.primaryschool",
    "pk": 34,
    "fields": {
      "name": "North Vista Primary School",
      "geometry": "SRID=4326;POINT (103.895961877928 1.38282243016301)",
      "address": "20 Compassvale Link",
      "postal_code": "544974",
      "phone_number": "6484356",
      "email_address": "nvtps@moe.edu.sg",
      "website_url": "http://www.northvistapri.moe.edu.sg"
    }
  },
  {
    "model": "schools.primaryschool",
    "pk": 35,
    "fields": {
      "name": "New Town Primary School",
      "geometry": "SRID=4326;POINT (103.800102318609 1.29964181064172)",
      "address": "300 Tanglin Halt Road",
      "postal_code": "148812",
      "phone_number": "6474880",
      "email_address": "ntps@moe.edu.sg",
      "website_url": "http://www.newtownpri.moe.edu.sg/"
    }
  },
  {
    "model": "schools.primaryschool",
    "pk": 36,
    "fields": {
      "name": "Naval Base Primary School",
      "geometry": "SRID=4326;POINT (103.838794077233 1.41630663159389)",
      "address": "7 Yishun Ave 4",
      "postal_code": "769028",
      "phone_number": "6753711",
      "email_address": "nbps@moe.edu.sg",
      "website_url": "http://www.navalbasepri.moe.edu.sg/"
    }
  },
  {
    "model": "schools.primaryschool",
    "pk": 37,
    "fields": {
      "name": "Nan Chiau Primary School",
      "geometry": "SRID=4326;POINT (103.891180928186 1.39221149906595)",
      "address": "50 Anchorvale Link",
      "postal_code": "545080",
      "phone_number": "6489790",
      "email_address": "ncps@moe.edu.sg",
      "website_url": "http://www.ncps.moe.edu.sg"
    }
  },
  {
    "model": "schools.primaryschool",
    "pk": 38,
    "fields": {
      "name": "Mee Toh School",
      "geometry": "SRID=4326;POINT (103.908589494228 1.39461845385922)",
      "address": "21 Edgedale Plains",
      "postal_code": "828867",
      "phone_number": "6489332",
      "email_address": "meetoh_sch@moe.edu.sg",
      "website_url": "http://www.meetoh.moe.edu.sg/"
    }
  },
  {
    "model": "schools.primaryschool",
    "pk": 39,
    "fields": {
      "name": "Lakeside Primary School",
      "geometry": "SRID=4326;POINT (103.718089546936 1.33820397676916)",
      "address": "161 Corporation Walk",
      "postal_code": "618310",
      "phone_number": "6262091",
      "email_address": "lakeside_ps@moe.edu.sg",
      "website_url": "http://www.lakesidepri.moe.edu.sg/"
    }
  },
  {
    "model": "schools.primaryschool",
    "pk": 40,
    "fields": {
      "name": "Kuo Chuan Presbyterian Primary School",
      "geometry": "SRID=4326;POINT (103.855018233311 1.34939813669538)",
      "address": "8 Bishan Street 13",
      "postal_code": "579793",
      "phone_number": "6259539",
      "email_address": "kcpps@moe.edu.sg",
      "website_url": "http://www.kuochuanpresbyterianpri.moe.edu.sg"
    }
  },
  {
    "model": "schools.primaryschool",
    "pk": 41,
    "fields": {
      "name": "Kong Hwa School",
      "geometry": "SRID=4326;POINT (103.888352029067 1.31099674009195)",
      "address": "350 Guillemard Road",
      "postal_code": "399772",
      "phone_number": "6342119",
      "email_address": "konghwa_sch@moe.edu.sg",
      "website_url": "http://www.konghwa.moe.edu.sg"
    }
  },
  {
    "model": "schools.primaryschool",
    "pk": 42,
    "fields": {
      "name": "Juying Primary School",
      "geometry": "SRID=4326;POINT (103.687769624799 1.33902264667596)",
      "address": "31 Jurong West Street 91",
      "postal_code": "649037",
      "phone_number": "6793203",
      "email_address": "juying_ps@moe.edu.sg",
      "website_url": "http://www.juyingpri.moe.edu.sg/"
    }
  },
  {
    "model": "schools.primaryschool",
    "pk": 43,
    "fields": {
      "name": "Hong Wen School",
      "geometry": "SRID=4326;POINT (103.857628468881 1.32175999964555)",
      "address": "30 Towner Road",
      "postal_code": "327829",
      "phone_number": "6294334",
      "email_address": "hws@moe.edu.sg",
      "website_url": "http://www.hongwen.moe.edu.sg"
    }
  },
  {
    "model": "schools.primaryschool",
    "pk": 44,
    "fields": {
      "name": "Haig Girls\u2019 School",
      "geometry": "SRID=4326;POINT (103.902902557195 1.31194344271385)",
      "address": "51 Koon Seng Road",
      "postal_code": "427072",
      "phone_number": "6344029",
      "email_address": "haiggirlssch@moe.edu.sg",
      "website_url": "http://www.haiggirls.moe.edu.sg"
    }
  },
  {
    "model": "schools.primaryschool",
    "pk": 45,
    "fields": {
      "name": "Guangyang Primary School",
      "geometry": "SRID=4326;POINT (103.849453239895 1.34569011530241)",
      "address": "6 Bishan Street 12",
      "postal_code": "579806",
      "phone_number": "6258045",
      "email_address": "gyps@moe.edu.sg",
      "website_url": "http://www.guangyangpri.moe.edu.sg"
    }
  },
  {
    "model": "schools.primaryschool",
    "pk": 46,
    "fields": {
      "name": "Greendale Primary School",
      "geometry": "SRID=4326;POINT (103.912341048919 1.39648761034483)",
      "address": "50 Edgedale Plains",
      "postal_code": "828848",
      "phone_number": "6886141",
      "email_address": "greendale_ps@moe.edu.sg",
      "website_url": "http://www.greendalepri.moe.edu.sg"
    }
  },
  {
    "model": "schools.primaryschool",
    "pk": 47,
    "fields": {
      "name": "Gan Eng Seng Primary School",
      "geometry": "SRID=4326;POINT (103.815547410064 1.28559516494963)",
      "address": "100 Redhill Close",
      "postal_code": "158901",
      "phone_number": "6471745",
      "email_address": "gesps@moe.edu.sg",
      "website_url": "http://www.ganengsengpri.moe.edu.sg"
    }
  },
  {
    "model": "schools.primaryschool",
    "pk": 48,
    "fields": {
      "name": "Fuhua Primary School",
      "geometry": "SRID=4326;POINT (103.736103745748 1.33650394789627)",
      "address": "65 Jurong East Street 13",
      "postal_code": "609647",
      "phone_number": "6562437",
      "email_address": "fhps@moe.edu.sg",
      "website_url": "http://www.fuhuapri.moe.edu.sg"
    }
  },
  {
    "model": "schools.primaryschool",
    "pk": 49,
    "fields": {
      "name": "Fern Green Primary School",
      "geometry": "SRID=4326;POINT (103.880330305684 1.39726966050481)",
      "address": "70 Fernvale Link",
      "postal_code": "797538",
      "phone_number": "6834310",
      "email_address": "ferngreen_ps@moe.edu.sg",
      "website_url": "https://ferngreenpri.moe.edu.sg"
    }
  },
  {
    "model": "schools.primaryschool",
    "pk": 50,
    "fields": {
      "name": "Fairfield Methodist School (Primary)",
      "geometry": "SRID=4326;POINT (103.785438270044 1.30054082453427)",
      "address": "100 Dover Road",
      "postal_code": "139648",
      "phone_number": "6778843",
      "email_address": "fmsp@moe.edu.sg",
      "website_url": "http://www.fmsp.moe.edu.sg"
    }
  },
  {
    "model": "schools.primaryschool",
    "pk": 51,
    "fields": {
      "name": "Endeavour Primary School",
      "geometry": "SRID=4326;POINT (103.817436231731 1.45403837499303)",
      "address": "10 Admiralty Link",
      "postal_code": "757521",
      "phone_number": "6482465",
      "email_address": "endeavour_ps@moe.edu.sg",
      "website_url": "https://endeavourpri.moe.edu.sg"
    }
  },
  {
    "model": "schools.primaryschool",
    "pk": 52,
    "fields": {
      "name": "Elias Park Primary School",
      "geometry": "SRID=4326;POINT (103.945128117683 1.37451269459895)",
      "address": "11 Pasir Ris Street 52",
      "postal_code": "518866",
      "phone_number": "6584439",
      "email_address": "epps@moe.edu.sg",
      "website_url": "http://www.eliasparkpri.moe.edu.sg"
    }
  },
  {
    "model": "schools.primaryschool",
    "pk": 53,
    "fields": {
      "name": "Chongzheng Primary School",
      "geometry": "SRID=4326;POINT (103.951399541868 1.35070739237745)",
      "address": "1 Tampines Street 21",
      "postal_code": "529392",
      "phone_number": "6781900",
      "email_address": "czps@moe.edu.sg",
      "website_url": "http://www.chongzhengpri.moe.edu.sg"
    }
  },
  {
    "model": "schools.primaryschool",
    "pk": 54,
    "fields": {
      "name": "Chongfu School",
      "geometry": "SRID=4326;POINT (103.839309173817 1.43839562897008)",
      "address": "170 Yishun Avenue 6",
      "postal_code": "768959",
      "phone_number": "6758552",
      "email_address": "cfs@moe.edu.sg",
      "website_url": "http://www.chongfu.moe.edu.sg"
    }
  },
  {
    "model": "schools.primaryschool",
    "pk": 55,
    "fields": {
      "name": "CHIJ St. Nicholas Girls\u2019 School (Primary Section)",
      "geometry": "SRID=4326;POINT (103.834253269436 1.37347687878919)",
      "address": "501 Ang Mo Kio Street 13",
      "postal_code": "569405",
      "phone_number": "6454969",
      "email_address": "chijsng_sec@moe.edu.sg",
      "website_url": "http://www.chijstnicholasgirls.moe.edu.sg"
    }
  },
  {
    "model": "schools.primaryschool",
    "pk": 56,
    "fields": {
      "name": "CHIJ Primary (Toa Payoh)",
      "geometry": "SRID=4326;POINT (103.841847263786 1.33275264711591)",
      "address": "628 Lorong 1 Toa Payoh",
      "postal_code": "319765",
      "phone_number": "6353216",
      "email_address": "chijtpps@moe.edu.sg",
      "website_url": "http://www.chijpritoapayoh.moe.edu.sg"
    }
  },
  {
    "model": "schools.primaryschool",
    "pk": 57,
    "fields": {
      "name": "CHIJ Our Lady Queen of Peace",
      "geometry": "SRID=4326;POINT (103.767412204602 1.36660366856101)",
      "address": "4 Chestnut Drive",
      "postal_code": "679287",
      "phone_number": "6769152",
      "email_address": "chijolqp@moe.edu.sg",
      "website_url": "http://www.chijourladyqueenofpeace.moe.edu.sg"
    }
  },
  {
    "model": "schools.primaryschool",
    "pk": 58,
    "fields": {
      "name": "CHIJ Our Lady of The Nativity",
      "geometry": "SRID=4326;POINT (103.897575728031 1.37330297194879)",
      "address": "1257 Upper Serangoon Road",
      "postal_code": "534793",
      "phone_number": "6385245",
      "email_address": "chijoln@moe.edu.sg",
      "website_url": "http://www.chijourladyofthenativity.moe.edu.sg"
    }
  },
  {
    "model": "schools.primaryschool",
    "pk": 59,
    "fields": {
      "name": "CHIJ Our Lady of Good Counsel",
      "geometry": "SRID=4326;POINT (103.864009397373 1.3574295229699)",
      "address": "2C Burghley Drive",
      "postal_code": "558979",
      "phone_number": "6288693",
      "email_address": "chijolgcs@moe.edu.sg",
      "website_url": "http://www.chijourladyofgoodcounsel.moe.edu.sg"
    }
  },
  {
    "model": "schools.primaryschool",
    "pk": 60,
    "fields": {
      "name": "CHIJ (Kellock)",
      "geometry": "SRID=4326;POINT (103.828157564896 1.27502272296403)",
      "address": "1 Bukit Teresa Road",
      "postal_code": "099757",
      "phone_number": "6273009",
      "email_address": "chijks@moe.edu.sg",
      "website_url": "http://www.chijkellock.moe.edu.sg"
    }
  },
  {
    "model": "schools.primaryschool",
    "pk": 61,
    "fields": {
      "name": "Changkat Primary School",
      "geometry": "SRID=4326;POINT (103.952080114035 1.34023163951634)",
      "address": "11 Simei St 3",
      "postal_code": "529896",
      "phone_number": "6783092",
      "email_address": "changkat_ps@moe.edu.sg",
      "website_url": "http://www.changkatpri.moe.edu.sg"
    }
  },
  {
    "model": "schools.primaryschool",
    "pk": 62,
    "fields": {
      "name": "Cedar Primary School",
      "geometry": "SRID=4326;POINT (103.875620790518 1.33558842561171)",
      "address": "15 Cedar Avenue",
      "postal_code": "349700",
      "phone_number": "6288563",
      "email_address": "cedar_ps@moe.edu.sg",
      "website_url": "http://www.cedarpri.moe.edu.sg"
    }
  },
  {
    "model": "schools.primaryschool",
    "pk": 63,
    "fields": {
      "name": "Canossa Catholic Primary School",
      "geometry": "SRID=4326;POINT (103.881050911498 1.32685879628179)",
      "address": "1 Sallim Road",
      "postal_code": "387621",
      "phone_number": "6844141",
      "email_address": "ccps@moe.edu.sg",
      "website_url": "https://canossacatholicpri.moe.edu.sg"
    }
  },
  {
    "model": "schools.primaryschool",
    "pk": 64,
    "fields": {
      "name": "Bukit View Primary School",
      "geometry": "SRID=4326;POINT (103.753665986188 1.34586054842037)",
      "address": "18 Bukit Batok Street 21",
      "postal_code": "659634",
      "phone_number": "6566198",
      "email_address": "bukitview_ps@moe.edu.sg",
      "website_url": "http://www.bukitviewpri.moe.edu.sg"
    }
  },
  {
    "model": "schools.primaryschool",
    "pk": 65,
    "fields": {
      "name": "Bukit Panjang Primary School",
      "geometry": "SRID=4326;POINT (103.769374904025 1.37362179302439)",
      "address": "109 Cashew Road",
      "postal_code": "679676",
      "phone_number": "6769191",
      "email_address": "bpps@moe.edu.sg",
      "website_url": "http://www.bukitpanjangpri.moe.edu.sg"
    }
  },
  {
    "model": "schools.primaryschool",
    "pk": 66,
    "fields": {
      "name": "Boon Lay Garden Primary School",
      "geometry": "SRID=4326;POINT (103.713280889452 1.34317853793319)",
      "address": "20 Boon Lay Drive",
      "postal_code": "649930",
      "phone_number": "6316099",
      "email_address": "blgps@moe.edu.sg",
      "website_url": "https://boonlaygardenpri.moe.edu.sg"
    }
  },
  {
    "model": "schools.primaryschool",
    "pk": 67,
    "fields": {
      "name": "Bendemeer Primary School",
      "geometry": "SRID=4326;POINT (103.865404167629 1.32181250780476)",
      "address": "91 Bendemeer Road",
      "postal_code": "339948",
      "phone_number": "6298291",
      "email_address": "bendemeer_ps@moe.edu.sg",
      "website_url": "http://www.bendemeerpri.moe.edu.sg/"
    }
  },
  {
    "model": "schools.primaryschool",
    "pk": 68,
    "fields": {
      "name": "Bedok Green Primary School",
      "geometry": "SRID=4326;POINT (103.937878976352 1.32344593287994)",
      "address": "1 Bedok South Ave 2",
      "postal_code": "469317",
      "phone_number": "6442541",
      "email_address": "bgps@moe.edu.sg",
      "website_url": "http://www.bedokgreenpri.moe.edu.sg"
    }
  },
  {
    "model": "schools.primaryschool",
    "pk": 69,
    "fields": {
      "name": "Beacon Primary School",
      "geometry": "SRID=4326;POINT (103.77363194111 1.38394934487102)",
      "address": "36 Bukit Panjang Ring Road",
      "postal_code": "679944",
      "phone_number": "6769725",
      "email_address": "beaconprisch@moe.edu.sg",
      "website_url": "http://www.beaconpri.moe.edu.sg"
    }
  },
  {
    "model": "schools.primaryschool",
    "pk": 70,
    "fields": {
      "name": "Angsana Primary School",
      "geometry": "SRID=4326;POINT (103.951808106156 1.34855974654082)",
      "address": "3 Tampines Street 22",
      "postal_code": "529366",
      "phone_number": "6783042",
      "email_address": "angsana_pri@moe.edu.sg",
      "website_url": "https://www.angsanapri.moe.edu.sg"
    }
  },
  {
    "model": "schools.primaryschool",
    "pk": 71,
    "fields": {
      "name": "Admiralty Primary School",
      "geometry": "SRID=4326;POINT (103.800040119743 1.44263479033113)",
      "address": "11 Woodlands Circle",
      "postal_code": "738907",
      "phone_number": "6362059",
      "email_address": "admiralty_ps@moe.edu.sg",
      "website_url": "http://www.admiraltypri.moe.edu.sg/"
    }
  },
  {
    "model": "schools.primaryschool",
    "pk": 72,
    "fields": {
      "name": "Maris Stella High School (Primary Section)",
      "geometry": "SRID=4326;POINT (103.8761218 1.3417641)",
      "address": "25 Mount Vernon Road",
      "postal_code": "368051",
      "phone_number": "6282774",
      "email_address": "msh@moe.edu.sg",
      "website_url": "http://marisstellahigh.moe.edu.sg"
    }
  },
  {
    "model": "schools.primaryschool",
    "pk": 73,
    "fields": {
      "name": "Zhonghua Primary School",
      "geometry": "SRID=4326;POINT (103.869762438084 1.3602032970505)",
      "address": "12 Serangoon Avenue 4",
      "postal_code": "556095",
      "phone_number": "6283541",
      "email_address": "zhonghua_ps@moe.edu.sg",
      "website_url": "http://www.zhonghuapri.moe.edu.sg"
    }
  },
  {
    "model": "schools.primaryschool",
    "pk": 74,
    "fields": {
      "name": "Zhenghua Primary School",
      "geometry": "SRID=4326;POINT (103.769313521752 1.37954887512233)",
      "address": "9 Fajar Road",
      "postal_code": "679002",
      "phone_number": "6769747",
      "email_address": "zhenghua_ps@moe.edu.sg",
      "website_url": "http://www.zhenghuapri.moe.edu.sg"
    }
  },
  {
    "model": "schools.primaryschool",
    "pk": 75,
    "fields": {
      "name": "Xinghua Primary School",
      "geometry": "SRID=4326;POINT (103.890465047334 1.35790893608186)",
      "address": "45 Hougang Avenue 1",
      "postal_code": "538882",
      "phone_number": "6288912",
      "email_address": "xinghua_ps@moe.edu.sg",
      "website_url": "http://www.xinghuapri.moe.edu.sg"
    }
  },
  {
    "model": "schools.primaryschool",
    "pk": 76,
    "fields": {
      "name": "Woodlands Ring Primary School",
      "geometry": "SRID=4326;POINT (103.797435733144 1.4349522931586)",
      "address": "11 Woodlands Ring Road",
      "postal_code": "738240",
      "phone_number": "6364367",
      "email_address": "wrps@moe.edu.sg",
      "website_url": "http://www.woodlandsringpri.moe.edu.sg"
    }
  },
  {
    "model": "schools.primaryschool",
    "pk": 77,
    "fields": {
      "name": "White Sands Primary School",
      "geometry": "SRID=4326;POINT (103.960918869319 1.36555714668556)",
      "address": "2 Pasir Ris St 11",
      "postal_code": "519075",
      "phone_number": "6922910",
      "email_address": "wsps@moe.edu.sg",
      "website_url": "http://www.whitesandspri.moe.edu.sg"
    }
  },
  {
    "model": "schools.primaryschool",
    "pk": 78,
    "fields": {
      "name": "Westwood Primary School",
      "geometry": "SRID=4326;POINT (103.70053420978 1.34718456606377)",
      "address": "1 Jurong West Street 73",
      "postal_code": "649188",
      "phone_number": "6412169",
      "email_address": "westwood_ps@moe.edu.sg",
      "website_url": "http://www.westwoodpri.moe.edu.sg",
      "kindergartens": [
        467
      ]
    }
  },
  {
    "model": "schools.primaryschool",
    "pk": 79,
    "fields": {
      "name": "West View Primary School",
      "geometry": "SRID=4326;POINT (103.760240434318 1.38367582003361)",
      "address": "31 Senja Road",
      "postal_code": "677742",
      "phone_number": "6760017",
      "email_address": "wvps@moe.edu.sg",
      "website_url": "http://www.westviewpri.moe.edu.sg"
    }
  },
  {
    "model": "schools.primaryschool",
    "pk": 80,
    "fields": {
      "name": "West Grove Primary School",
      "geometry": "SRID=4326;POINT (103.699286360581 1.34487905600144)",
      "address": "1 Jurong West St 72",
      "postal_code": "649223",
      "phone_number": "6267923",
      "email_address": "wgps@moe.edu.sg",
      "website_url": "http://www.westgrovepri.moe.edu.sg/"
    }
  },
  {
    "model": "schools.primaryschool",
    "pk": 81,
    "fields": {
      "name": "St. Stephen\u2019s School",
      "geometry": "SRID=4326;POINT (103.917258129598 1.31878997295137)",
      "address": "20 Siglap View",
      "postal_code": "455789",
      "phone_number": "6241951",
      "email_address": "ststephensch@moe.edu.sg",
      "website_url": "http://www.ststephens.moe.edu.sg"
    }
  },
  {
    "model": "schools.primaryschool",
    "pk": 82,
    "fields": {
      "name": "St. Andrew\u2019s Junior School",
      "geometry": "SRID=4326;POINT (103.865117134385 1.33140255308872)",
      "address": "2 Francis Thomas Drive",
      "postal_code": "359337",
      "phone_number": "6288430",
      "email_address": "sajs@moe.edu.sg",
      "website_url": "http://www.saintandrewsjunior.moe.edu.sg"
    }
  },
  {
    "model": "schools.primaryschool",
    "pk": 83,
    "fields": {
      "name": "Sengkang Green Primary School",
      "geometry": "SRID=4326;POINT (103.875217666486 1.39284606680479)",
      "address": "15 Fernvale Road",
      "postal_code": "797636",
      "phone_number": "6386425",
      "email_address": "sengkanggreen_ps@moe.edu.sg",
      "website_url": "http://www.sengkanggreenpri.moe.edu.sg/",
      "kindergartens": [
        459
      ]
    }
  },
  {
    "model": "schools.primaryschool",
    "pk": 84,
    "fields": {
      "name": "Rivervale Primary School",
      "geometry": "SRID=4326;POINT (103.904559511997 1.39340997767763)",
      "address": "80 Rivervale Drive",
      "postal_code": "545092",
      "phone_number": "6388745",
      "email_address": "rivervale_ps@moe.edu.sg",
      "website_url": "http://www.rivervalepri.moe.edu.sg/"
    }
  },
  {
    "model": "schools.primaryschool",
    "pk": 85,
    "fields": {
      "name": "Riverside Primary School",
      "geometry": "SRID=4326;POINT (103.801831963297 1.44704734253722)",
      "address": "110 Woodlands Crescent",
      "postal_code": "737803",
      "phone_number": "6365449",
      "email_address": "riverside_ps@moe.edu.sg",
      "website_url": "http://www.riversidepri.moe.edu.sg",
      "kindergartens": [
        465
      ]
    }
  },
  {
    "model": "schools.primaryschool",
    "pk": 86,
    "fields": {
      "name": "River Valley Primary School",
      "geometry": "SRID=4326;POINT (103.835815165829 1.29422328461692)",
      "address": "2 River Valley Green",
      "postal_code": "237993",
      "phone_number": "6737178",
      "email_address": "rvps@moe.edu.sg",
      "website_url": "http://www.rivervalleypri.moe.edu.sg"
    }
  },
  {
    "model": "schools.primaryschool",
    "pk": 87,
    "fields": {
      "name": "Queenstown Primary School",
      "geometry": "SRID=4326;POINT (103.807548617332 1.29559365009016)",
      "address": "310 Margaret Dr",
      "postal_code": "149303",
      "phone_number": "6474104",
      "email_address": "qtps@moe.edu.sg",
      "website_url": "http://www.queenstownpri.moe.edu.sg"
    }
  },
  {
    "model": "schools.primaryschool",
    "pk": 88,
    "fields": {
      "name": "Qihua Primary School",
      "geometry": "SRID=4326;POINT (103.788339756898 1.44203596612333)",
      "address": "5 Woodlands Street 81",
      "postal_code": "738525",
      "phone_number": "6269625",
      "email_address": "qihua_ps@moe.edu.sg",
      "website_url": "http://www.qihuapri.moe.edu.sg"
    }
  },
  {
    "model": "schools.primaryschool",
    "pk": 89,
    "fields": {
      "name": "Peiying Primary School",
      "geometry": "SRID=4326;POINT (103.830417090698 1.41723339695906)",
      "address": "651 Yishun Ring Road",
      "postal_code": "768687",
      "phone_number": "6257568",
      "email_address": "peiying_ps@moe.edu.sg",
      "website_url": "http://www.peiyingpri.moe.edu.sg"
    }
  },
  {
    "model": "schools.primaryschool",
    "pk": 90,
    "fields": {
      "name": "Pei Tong Primary School",
      "geometry": "SRID=4326;POINT (103.767599739431 1.31619774918991)",
      "address": "15 Clementi Avenue 5",
      "postal_code": "129857",
      "phone_number": "6777545",
      "email_address": "ptps@moe.edu.sg",
      "website_url": "http://www.peitongpri.moe.edu.sg/"
    }
  },
  {
    "model": "schools.primaryschool",
    "pk": 91,
    "fields": {
      "name": "Paya Lebar Methodist Girls\u2019 School (Primary)",
      "geometry": "SRID=4326;POINT (103.884971343143 1.34947276268398)",
      "address": "298 Lorong Ah Soo",
      "postal_code": "536741",
      "phone_number": "6286279",
      "email_address": "plmgps@moe.edu.sg",
      "website_url": "http://www.payalebarmethodistgirlspri.moe.edu.sg/"
    }
  },
  {
    "model": "schools.primaryschool",
    "pk": 92,
    "fields": {
      "name": "Oasis Primary School",
      "geometry": "SRID=4326;POINT (103.911120600638 1.40462413200795)",
      "address": "71 Edgefield Plains",
      "postal_code": "828716",
      "phone_number": "6320985",
      "email_address": "oasis_ps@moe.edu.sg",
      "website_url": "http://www.oasispri.moe.edu.sg/"
    }
  },
  {
    "model": "schools.primaryschool",
    "pk": 93,
    "fields": {
      "name": "Ngee Ann Primary School",
      "geometry": "SRID=4326;POINT (103.917463017497 1.305525059105)",
      "address": "344 Marine Terrace",
      "postal_code": "449149",
      "phone_number": "6441867",
      "email_address": "naps@moe.edu.sg",
      "website_url": "http://www.ngeeannpri.moe.edu.sg"
    }
  },
  {
    "model": "schools.primaryschool",
    "pk": 94,
    "fields": {
      "name": "Nanyang Primary School",
      "geometry": "SRID=4326;POINT (103.807750155296 1.32084749904534)",
      "address": "52 King's Road",
      "postal_code": "268097",
      "phone_number": "6467267",
      "email_address": "nyps@moe.edu.sg",
      "website_url": "http://www.nyps.moe.edu.sg"
    }
  },
  {
    "model": "schools.primaryschool",
    "pk": 95,
    "fields": {
      "name": "Nan Hua Primary School",
      "geometry": "SRID=4326;POINT (103.765118624077 1.30611628454706)",
      "address": "30 Jalan Lempeng",
      "postal_code": "128806",
      "phone_number": "6778805",
      "email_address": "nhps@moe.edu.sg",
      "website_url": "http://www.nanhuapri.moe.edu.sg"
    }
  },
  {
    "model": "schools.primaryschool",
    "pk": 96,
    "fields": {
      "name": "Mayflower Primary School",
      "geometry": "SRID=4326;POINT (103.835805246743 1.37614621670478)",
      "address": "200 Ang Mo Kio Avenue 5",
      "postal_code": "569878",
      "phone_number": "6452084",
      "email_address": "mayflower_ps@moe.edu.sg",
      "website_url": "http://www.mayflowerpri.moe.edu.sg"
    }
  },
  {
    "model": "schools.primaryschool",
    "pk": 97,
    "fields": {
      "name": "Marsiling Primary School",
      "geometry": "SRID=4326;POINT (103.773643013846 1.4338390403706)",
      "address": "31 Woodlands Centre Road",
      "postal_code": "738927",
      "phone_number": "6269619",
      "email_address": "marsiling_ps@moe.edu.sg",
      "website_url": "http://www.marsilingpri.moe.edu.sg"
    }
  },
  {
    "model": "schools.primaryschool",
    "pk": 98,
    "fields": {
      "name": "Lianhua Primary School",
      "geometry": "SRID=4326;POINT (103.754165828711 1.35424191127296)",
      "address": "2 Bukit Batok Street 52",
      "postal_code": "659243",
      "phone_number": "6563950",
      "email_address": "lianhua_ps@moe.edu.sg",
      "website_url": "http://www.lianhuapri.moe.edu.sg/"
    }
  },
  {
    "model": "schools.primaryschool",
    "pk": 99,
    "fields": {
      "name": "Keming Primary School",
      "geometry": "SRID=4326;POINT (103.756449399351 1.34552849960877)",
      "address": "90 Bukit Batok East Avenue 6",
      "postal_code": "659762",
      "phone_number": "6896205",
      "email_address": "kmps@moe.edu.sg",
      "website_url": "http://www.kemingpri.moe.edu.sg"
    }
  },
  {
    "model": "schools.primaryschool",
    "pk": 100,
    "fields": {
      "name": "Jurong West Primary School",
      "geometry": "SRID=4326;POINT (103.698803732244 1.33917519796107)",
      "address": "30 Jurong West St 61",
      "postal_code": "648368",
      "phone_number": "6793341",
      "email_address": "jwps@moe.edu.sg",
      "website_url": "http://www.jurongwestpri.moe.edu.sg"
    }
  },
  {
    "model": "schools.primaryschool",
    "pk": 101,
    "fields": {
      "name": "Jurong Primary School",
      "geometry": "SRID=4326;POINT (103.733156560251 1.3486002031607)",
      "address": "320 Jurong East Street 32",
      "postal_code": "609476",
      "phone_number": "6561883",
      "email_address": "jps@moe.edu.sg",
      "website_url": "http://www.jurongpri.moe.edu.sg"
    }
  },
  {
    "model": "schools.primaryschool",
    "pk": 102,
    "fields": {
      "name": "Junyuan Primary School",
      "geometry": "SRID=4326;POINT (103.939220537934 1.34787051230886)",
      "address": "2 Tampines Street 91",
      "postal_code": "528906",
      "phone_number": "6783037",
      "email_address": "junyuan_ps@moe.edu.sg",
      "website_url": "http://www.junyuanpri.moe.edu.sg"
    }
  },
  {
    "model": "schools.primaryschool",
    "pk": 103,
    "fields": {
      "name": "Jing Shan Primary School",
      "geometry": "SRID=4326;POINT (103.852132214306 1.372232909835)",
      "address": "5 Ang Mo Kio St 52",
      "postal_code": "569228",
      "phone_number": "6456630",
      "email_address": "jsps@moe.edu.sg",
      "website_url": "http://www.jingshanpri.moe.edu.sg"
    }
  },
  {
    "model": "schools.primaryschool",
    "pk": 104,
    "fields": {
      "name": "Huamin Primary School",
      "geometry": "SRID=4326;POINT (103.844863443 1.42731880981381)",
      "address": "21 Yishun Avenue 11",
      "postal_code": "768857",
      "phone_number": "6752900",
      "email_address": "huamin_ps@moe.edu.sg",
      "website_url": "http://www.huaminpri.moe.edu.sg"
    }
  },
  {
    "model": "schools.primaryschool",
    "pk": 105,
    "fields": {
      "name": "Hougang Primary School",
      "geometry": "SRID=4326;POINT (103.880807295096 1.37738249360778)",
      "address": "1 Hougang St 93",
      "postal_code": "534238",
      "phone_number": "6489744",
      "email_address": "hougang_ps@moe.edu.sg",
      "website_url": "http://www.hougangpri.moe.edu.sg/"
    }
  },
  {
    "model": "schools.primaryschool",
    "pk": 106,
    "fields": {
      "name": "Holy Innocents\u2019 Primary School",
      "geometry": "SRID=4326;POINT (103.894114899795 1.3669383087735)",
      "address": "5 Lorong Low Koon",
      "postal_code": "536451",
      "phone_number": "6288651",
      "email_address": "holyinnocentspri@moe.edu.sg",
      "website_url": "http://www.holyinnocentspri.moe.edu.sg/"
    }
  },
  {
    "model": "schools.primaryschool",
    "pk": 107,
    "fields": {
      "name": "Henry Park Primary School",
      "geometry": "SRID=4326;POINT (103.784296227747 1.31667646178349)",
      "address": "1 Holland Grove Road",
      "postal_code": "278790",
      "phone_number": "6466360",
      "email_address": "hpps@moe.edu.sg",
      "website_url": "http://www.henryparkpri.moe.edu.sg"
    }
  },
  {
    "model": "schools.primaryschool",
    "pk": 108,
    "fields": {
      "name": "Fuchun Primary School",
      "geometry": "SRID=4326;POINT (103.778192944298 1.43047990810127)",
      "address": "23 Woodlands Avenue 1",
      "postal_code": "739063",
      "phone_number": "6368392",
      "email_address": "fcps@moe.edu.sg",
      "website_url": "http://www.fuchunpri.moe.edu.sg"
    }
  },
  {
    "model": "schools.primaryschool",
    "pk": 109,
    "fields": {
      "name": "Frontier Primary School",
      "geometry": "SRID=4326;POINT (103.69970173931 1.33641298743236)",
      "address": "20 Jurong West Street 61",
      "postal_code": "648200",
      "phone_number": "6578955",
      "email_address": "frontier_ps@moe.edu.sg",
      "website_url": "http://www.frontierpri.moe.edu.sg",
      "kindergartens": [
        461
      ]
    }
  },
  {
    "model": "schools.primaryschool",
    "pk": 110,
    "fields": {
      "name": "Fengshan Primary School",
      "geometry": "SRID=4326;POINT (103.931710293058 1.32980598760786)",
      "address": "307 Bedok North Road",
      "postal_code": "469680",
      "phone_number": "6586012",
      "email_address": "fsps@moe.edu.sg",
      "website_url": "http://www.fengshanpri.moe.edu.sg"
    }
  },
  {
    "model": "schools.primaryschool",
    "pk": 111,
    "fields": {
      "name": "Evergreen Primary School",
      "geometry": "SRID=4326;POINT (103.794581221647 1.44415064298951)",
      "address": "31 Woodlands Circle",
      "postal_code": "738908",
      "phone_number": "6368770",
      "email_address": "evergreen_ps@moe.edu.sg",
      "website_url": "http://www.evergreenpri.moe.edu.sg"
    }
  },
  {
    "model": "schools.primaryschool",
    "pk": 112,
    "fields": {
      "name": "De La Salle School",
      "geometry": "SRID=4326;POINT (103.743201812831 1.39470782963993)",
      "address": "11 Choa Chu Kang St 52",
      "postal_code": "689285",
      "phone_number": "6766767",
      "email_address": "dlss@moe.edu.sg",
      "website_url": "http://www.delasalle.moe.edu.sg"
    }
  },
  {
    "model": "schools.primaryschool",
    "pk": 113,
    "fields": {
      "name": "Corporation Primary School",
      "geometry": "SRID=4326;POINT (103.707593724614 1.35099779872542)",
      "address": "31 Jurong West Street 24",
      "postal_code": "648347",
      "phone_number": "6795738",
      "email_address": "cps@moe.edu.sg",
      "website_url": "http://www.corporationpri.moe.edu.sg"
    }
  },
  {
    "model": "schools.primaryschool",
    "pk": 114,
    "fields": {
      "name": "Clementi Primary School",
      "geometry": "SRID=4326;POINT (103.763144493687 1.31506321827877)",
      "address": "8 Clementi Ave 3",
      "postal_code": "129903",
      "phone_number": "6779744",
      "email_address": "admin_clementi_ps@moe.edu.sg",
      "website_url": "http://www.clementipri.moe.edu.sg"
    }
  },
  {
    "model": "schools.primaryschool",
    "pk": 115,
    "fields": {
      "name": "Chua Chu Kang Primary School",
      "geometry": "SRID=4326;POINT (103.741832917421 1.3777589009337)",
      "address": "20 Choa Chu Kang Avenue 2",
      "postal_code": "689905",
      "phone_number": "6766157",
      "email_address": "cckps@moe.edu.sg",
      "website_url": "http://www.chuachukangpri.moe.edu.sg"
    }
  },
  {
    "model": "schools.primaryschool",
    "pk": 116,
    "fields": {
      "name": "CHIJ (Katong) Primary",
      "geometry": "SRID=4326;POINT (103.911105620496 1.30648535277089)",
      "address": "17 Martia Road",
      "postal_code": "424821",
      "phone_number": "6344307",
      "email_address": "chijktps@moe.edu.sg",
      "website_url": "http://chijkcp.moe.edu.sg"
    }
  },
  {
    "model": "schools.primaryschool",
    "pk": 117,
    "fields": {
      "name": "Casuarina Primary School",
      "geometry": "SRID=4326;POINT (103.957020286387 1.37246063955374)",
      "address": "30 Pasir Ris St 41",
      "postal_code": "518935",
      "phone_number": "6583713",
      "email_address": "casuarina_ps@moe.edu.sg",
      "website_url": "http://www.casuarinapri.moe.edu.sg"
    }
  },
  {
    "model": "schools.primaryschool",
    "pk": 118,
    "fields": {
      "name": "Cantonment Primary School",
      "geometry": "SRID=4326;POINT (103.839962631748 1.27547252623205)",
      "address": "1 Cantonment Close",
      "postal_code": "088256",
      "phone_number": "6511955",
      "email_address": "cantonment_ps@moe.edu.sg",
      "website_url": "http://www.cantonmentpri.moe.edu.sg"
    }
  },
  {
    "model": "schools.primaryschool",
    "pk": 119,
    "fields": {
      "name": "Canberra Primary School",
      "geometry": "SRID=4326;POINT (103.815839476605 1.45130467584564)",
      "address": "21 Admiralty Drive",
      "postal_code": "757714",
      "phone_number": "6759743",
      "email_address": "canberra_ps@moe.edu.sg",
      "website_url": "http://www.canberrapri.moe.edu.sg"
    }
  },
  {
    "model": "schools.primaryschool",
    "pk": 120,
    "fields": {
      "name": "Anglo-Chinese School (Primary)",
      "geometry": "SRID=4326;POINT (103.835609732082 1.31837054550897)",
      "address": "50 Barker Road",
      "postal_code": "309918",
      "phone_number": "6250163",
      "email_address": "acps@moe.edu.sg",
      "website_url": "http://www.acspri.moe.edu.sg/"
    }
  },
  {
    "model": "schools.primaryschool",
    "pk": 121,
    "fields": {
      "name": "Anglo-Chinese School (Junior)",
      "geometry": "SRID=4326;POINT (103.840955091346 1.30935122599558)",
      "address": "16 Winstedt Road",
      "postal_code": "227988",
      "phone_number": "6733791",
      "email_address": "acjs@moe.edu.sg",
      "website_url": "http://www.acsj.moe.edu.sg"
    }
  },
  {
    "model": "schools.primaryschool",
    "pk": 122,
    "fields": {
      "name": "Ang Mo Kio Primary School",
      "geometry": "SRID=4326;POINT (103.839630858752 1.3693217658461)",
      "address": "20 Ang Mo Kio Avenue 3",
      "postal_code": "569920",
      "phone_number": "6452079",
      "email_address": "amkps@moe.edu.sg",
      "website_url": "http://www.angmokiopri.moe.edu.sg"
    }
  },
  {
    "model": "schools.primaryschool",
    "pk": 123,
    "fields": {
      "name": "Anderson Primary School",
      "geometry": "SRID=4326;POINT (103.841392081119 1.38426429436739)",
      "address": "19 Ang Mo Kio Ave 9",
      "postal_code": "569785",
      "phone_number": "6456034",
      "email_address": "anderson_ps@moe.edu.sg",
      "website_url": "http://www.andersonpri.moe.edu.sg"
    }
  },
  {
    "model": "schools.primaryschool",
    "pk": 124,
    "fields": {
      "name": "Anchor Green Primary School",
      "geometry": "SRID=4326;POINT (103.887165375937 1.39037014886962)",
      "address": "31 Anchorvale Drive",
      "postal_code": "544969",
      "phone_number": "6886135",
      "email_address": "anchorgreen_ps@moe.edu.sg",
      "website_url": "http://www.anchorgreenpri.moe.edu.sg"
    }
  },
  {
    "model": "schools.primaryschool",
    "pk": 125,
    "fields": {
      "name": "Ai Tong School",
      "geometry": "SRID=4326;POINT (103.833020333986 1.36058343389044)",
      "address": "100 Bright Hill Drive",
      "postal_code": "579646",
      "phone_number": "6454767",
      "email_address": "aitong_sch@moe.edu.sg",
      "website_url": "http://www.aitong.moe.edu.sg"
    }
  },
  {
    "model": "schools.primaryschool",
    "pk": 126,
    "fields": {
      "name": "Yishun Primary School",
      "geometry": "SRID=4326;POINT (103.834087115915 1.43338602948303)",
      "address": "500 Yishun Ring Road",
      "postal_code": "768679",
      "phone_number": "6257746",
      "email_address": "yps@moe.edu.sg",
      "website_url": "http://www.yishunpri.moe.edu.sg"
    }
  },
  {
    "model": "schools.primaryschool",
    "pk": 127,
    "fields": {
      "name": "Xishan Primary School",
      "geometry": "SRID=4326;POINT (103.837755319448 1.43347186925066)",
      "address": "8 Yishun Street 21",
      "postal_code": "768611",
      "phone_number": "6758883",
      "email_address": "xishan_ps@moe.edu.sg",
      "website_url": "http://www.xishanpri.moe.edu.sg/"
    }
  },
  {
    "model": "schools.primaryschool",
    "pk": 128,
    "fields": {
      "name": "Xingnan Primary School",
      "geometry": "SRID=4326;POINT (103.687950252103 1.34254744877696)",
      "address": "5 Jurong West Street 91",
      "postal_code": "649036",
      "phone_number": "6791367",
      "email_address": "xingnan_ps@moe.edu.sg",
      "website_url": "http://www.xingnanpri.moe.edu.sg"
    }
  },
  {
    "model": "schools.primaryschool",
    "pk": 129,
    "fields": {
      "name": "Woodgrove Primary School",
      "geometry": "SRID=4326;POINT (103.790604437613 1.43310340168969)",
      "address": "2 Woodlands Drive 14",
      "postal_code": "738079",
      "phone_number": "6894337",
      "email_address": "woodgrove_ps@moe.edu.sg",
      "website_url": "http://www.woodgrovepri.moe.edu.sg/"
    }
  },
  {
    "model": "schools.primaryschool",
    "pk": 130,
    "fields": {
      "name": "West Spring Primary School",
      "geometry": "SRID=4326;POINT (103.766195711835 1.38944145898946)",
      "address": "60 Bukit Panjang Ring Road",
      "postal_code": "679946",
      "phone_number": "6314419",
      "email_address": "westspring_ps@moe.edu.sg",
      "website_url": "http://www.westspringpri.moe.edu.sg",
      "kindergartens": [
        460
      ]
    }
  },
  {
    "model": "schools.primaryschool",
    "pk": 131,
    "fields": {
      "name": "Wellington Primary School",
      "geometry": "SRID=4326;POINT (103.82230605577 1.45191585783116)",
      "address": "10 Wellington Circle",
      "postal_code": "757702",
      "phone_number": "6753331",
      "email_address": "wellingtonps@moe.edu.sg",
      "website_url": "http://www.wellingtonpri.moe.edu.sg"
    }
  },
  {
    "model": "schools.primaryschool",
    "pk": 132,
    "fields": {
      "name": "Waterway Primary School",
      "geometry": "SRID=4326;POINT (103.918621581556 1.3988280062658)",
      "address": "70 Punggol Drive",
      "postal_code": "828802",
      "phone_number": "6636688",
      "email_address": "waterway_ps@moe.edu.sg",
      "website_url": "https://waterwaypri.moe.edu.sg"
    }
  },
  {
    "model": "schools.primaryschool",
    "pk": 133,
    "fields": {
      "name": "Unity Primary School",
      "geometry": "SRID=4326;POINT (103.746822625758 1.40285481877249)",
      "address": "21 Choa Chu Kang Crescent",
      "postal_code": "688268",
      "phone_number": "6767675",
      "email_address": "unity_ps@moe.edu.sg",
      "website_url": "http://www.unitypri.moe.edu.sg"
    }
  },
  {
    "model": "schools.primaryschool",
    "pk": 134,
    "fields": {
      "name": "Teck Whye Primary School",
      "geometry": "SRID=4326;POINT (103.753291857016 1.38364996834459)",
      "address": "11 Teck Whye Walk",
      "postal_code": "688261",
      "phone_number": "6769102",
      "email_address": "twps@moe.edu.sg",
      "website_url": "http://www.teckwhyepri.moe.edu.sg"
    }
  },
  {
    "model": "schools.primaryschool",
    "pk": 135,
    "fields": {
      "name": "Teck Ghee Primary School",
      "geometry": "SRID=4326;POINT (103.850957126982 1.36558782075971)",
      "address": "1 Ang Mo Kio Street 32",
      "postal_code": "569299",
      "phone_number": "6454876",
      "email_address": "tgps@moe.edu.sg",
      "website_url": "http://www.teckgheepri.moe.edu.sg"
    }
  },
  {
    "model": "schools.primaryschool",
    "pk": 136,
    "fields": {
      "name": "St. Margaret\u2019s Primary School",
      "geometry": "SRID=4326;POINT (103.846251114072 1.30378845667471)",
      "address": "99 Wilkie Road",
      "postal_code": "228091",
      "phone_number": "6339424",
      "email_address": "stmargaretps@moe.edu.sg",
      "website_url": "http://www.stmargaretspri.moe.edu.sg"
    }
  },
  {
    "model": "schools.primaryschool",
    "pk": 137,
    "fields": {
      "name": "St. Joseph\u2019s Institution Junior",
      "geometry": "SRID=4326;POINT (103.845611935235 1.31772860986917)",
      "address": "3 Essex Road",
      "postal_code": "309331",
      "phone_number": "6255270",
      "email_address": "sjijunior@moe.edu.sg",
      "website_url": "https://sjijunior.moe.edu.sg/"
    }
  },
  {
    "model": "schools.primaryschool",
    "pk": 138,
    "fields": {
      "name": "St. Hilda\u2019s Primary School",
      "geometry": "SRID=4326;POINT (103.937920511812 1.34934994368498)",
      "address": "2 Tampines Ave 3",
      "postal_code": "529706",
      "phone_number": "6781191",
      "email_address": "shps@moe.edu.sg",
      "website_url": "http://www.shps.moe.edu.sg"
    }
  },
  {
    "model": "schools.primaryschool",
    "pk": 139,
    "fields": {
      "name": "St. Gabriel\u2019s Primary School",
      "geometry": "SRID=4326;POINT (103.862561037707 1.34947192653863)",
      "address": "220 Lorong Chuan",
      "postal_code": "556742",
      "phone_number": "6280362",
      "email_address": "stgps@moe.edu.sg",
      "website_url": "http://www.stgabrielspri.moe.edu.sg"
    }
  },
  {
    "model": "schools.primaryschool",
    "pk": 140,
    "fields": {
      "name": "St. Anthony\u2019s Primary School",
      "geometry": "SRID=4326;POINT (103.749251919049 1.36411948475835)",
      "address": "30 Bukit Batok St 32",
      "postal_code": "659401",
      "phone_number": "6569082",
      "email_address": "saps@moe.edu.sg",
      "website_url": "http://www.stanthonyspri.moe.edu.sg"
    }
  },
  {
    "model": "schools.primaryschool",
    "pk": 141,
    "fields": {
      "name": "Springdale Primary School",
      "geometry": "SRID=4326;POINT (103.889926221247 1.39467010299297)",
      "address": "71 Anchorvale Link",
      "postal_code": "544799",
      "phone_number": "6315760",
      "email_address": "springdale_ps@moe.edu.sg",
      "website_url": "http://springdalepri.moe.edu.sg/",
      "kindergartens": [
        466
      ]
    }
  },
  {
    "model": "schools.primaryschool",
    "pk": 142,
    "fields": {
      "name": "Singapore Chinese Girls\u2019 School (Primary)",
      "geometry": "SRID=4326;POINT (103.82994776728 1.3203941615946)",
      "address": "190 Dunearn Road",
      "postal_code": "309437",
      "phone_number": "6252326",
      "email_address": "scgps@moe.edu.sg",
      "website_url": "http://scgs.moe.edu.sg"
    }
  },
  {
    "model": "schools.primaryschool",
    "pk": 143,
    "fields": {
      "name": "Seng Kang Primary School",
      "geometry": "SRID=4326;POINT (103.899767112047 1.38949740395092)",
      "address": "21 Compassvale Walk",
      "postal_code": "545166",
      "phone_number": "6384080",
      "email_address": "skps@moe.edu.sg",
      "website_url": "http://www.sengkangpri.moe.edu.sg/"
    }
  },
  {
    "model": "schools.primaryschool",
    "pk": 144,
    "fields": {
      "name": "Rulang Primary School",
      "geometry": "SRID=4326;POINT (103.718457955487 1.34673868889098)",
      "address": "6 Jurong West Street 52",
      "postal_code": "649295",
      "phone_number": "6565777",
      "email_address": "rulang_ps@moe.edu.sg",
      "website_url": "http://www.rulangpri.moe.edu.sg/"
    }
  },
  {
    "model": "schools.primaryschool",
    "pk": 145,
    "fields": {
      "name": "Raffles Girls\u2019 Primary School",
      "geometry": "SRID=4326;POINT (103.806442915912 1.32940426000123)",
      "address": "21 Hillcrest Road",
      "postal_code": "289072",
      "phone_number": "6468437",
      "email_address": "rgps@moe.edu.sg",
      "website_url": "http://www.rafflesgirlspri.moe.edu.sg"
    }
  },
  {
    "model": "schools.primaryschool",
    "pk": 146,
    "fields": {
      "name": "Radin Mas Primary School",
      "geometry": "SRID=4326;POINT (103.824188270373 1.27495823622639)",
      "address": "1 Bukit Purmei Avenue",
      "postal_code": "099840",
      "phone_number": "6273393",
      "email_address": "rmps@moe.edu.sg",
      "website_url": "http://www.radinmasps.moe.edu.sg"
    }
  },
  {
    "model": "schools.primaryschool",
    "pk": 147,
    "fields": {
      "name": "Qifa Primary School",
      "geometry": "SRID=4326;POINT (103.756743208641 1.31325147892085)",
      "address": "50 West Coast Avenue",
      "postal_code": "128104",
      "phone_number": "6778308",
      "email_address": "qifa_ps@moe.edu.sg",
      "website_url": "http://www.qifapri.moe.edu.sg"
    }
  },
  {
    "model": "schools.primaryschool",
    "pk": 148,
    "fields": {
      "name": "Punggol Cove Primary School",
      "geometry": "SRID=4326;POINT (103.898804620697 1.41159891873965)",
      "address": "52 Sumang Walk",
      "postal_code": "828674",
      "phone_number": "6385733",
      "email_address": "punggolcove_ps@moe.edu.sg",
      "website_url": "http://www.punggolcovepri.moe.edu.sg/"
    }
  },
  {
    "model": "schools.primaryschool",
    "pk": 149,
    "fields": {
      "name": "Princess Elizabeth Primary School",
      "geometry": "SRID=4326;POINT (103.74101964471 1.34920351265302)",
      "address": "30 Bukit Batok West Avenue 3",
      "postal_code": "659163",
      "phone_number": "6565511",
      "email_address": "peps@moe.edu.sg",
      "website_url": "http://www.princesselizabethpri.moe.edu.sg"
    }
  },
  {
    "model": "schools.primaryschool",
    "pk": 150,
    "fields": {
      "name": "Poi Ching School",
      "geometry": "SRID=4326;POINT (103.935246477199 1.35765122315691)",
      "address": "21 Tampines Street 71",
      "postal_code": "529067",
      "phone_number": "6785642",
      "email_address": "contact@poiching.moe.edu.sg",
      "website_url": "http://www.poiching.moe.edu.sg"
    }
  },
  {
    "model": "schools.primaryschool",
    "pk": 151,
    "fields": {
      "name": "Park View Primary School",
      "geometry": "SRID=4326;POINT (103.939541695654 1.37738069854251)",
      "address": "60 Pasir Ris Drive 1",
      "postal_code": "519524",
      "phone_number": "6585142",
      "email_address": "pvps@moe.edu.sg",
      "website_url": "http://www.parkviewpri.moe.edu.sg"
    }
  },
  {
    "model": "schools.primaryschool",
    "pk": 152,
    "fields": {
      "name": "Opera Estate Primary School",
      "geometry": "SRID=4326;POINT (103.923788259248 1.3193191443626)",
      "address": "48 Fidelio Street",
      "postal_code": "458436",
      "phone_number": "6241041",
      "email_address": "oeps@moe.edu.sg",
      "website_url": "http://www.operaestatepri.moe.edu.sg"
    }
  },
  {
    "model": "schools.primaryschool",
    "pk": 153,
    "fields": {
      "name": "Northoaks Primary School",
      "geometry": "SRID=4326;POINT (103.814196981329 1.45660782030105)",
      "address": "61 Sembawang Drive",
      "postal_code": "757622",
      "phone_number": "6753883",
      "email_address": "northoaks_ps@moe.edu.sg",
      "website_url": "http://www.northoakspri.moe.edu.sg",
      "kindergartens": [
        464
      ]
    }
  },
  {
    "model": "schools.primaryschool",
    "pk": 154,
    "fields": {
      "name": "Northland Primary School",
      "geometry": "SRID=4326;POINT (103.840928424929 1.42096989918956)",
      "address": "15 Yishun Avenue 4",
      "postal_code": "769026",
      "phone_number": "6759888",
      "email_address": "northland_ps@moe.edu.sg",
      "website_url": "http://www.northlandpri.moe.edu.sg"
    }
  },
  {
    "model": "schools.primaryschool",
    "pk": 155,
    "fields": {
      "name": "North View Primary School",
      "geometry": "SRID=4326;POINT (103.848190787869 1.42752327193729)",
      "address": "210 Yishun Avenue 6",
      "postal_code": "768960",
      "phone_number": "6759323",
      "email_address": "nvps@moe.edu.sg",
      "website_url": "http://www.northviewpri.moe.edu.sg"
    }
  },
  {
    "model": "schools.primaryschool",
    "pk": 156,
    "fields": {
      "name": "North Spring Primary School",
      "geometry": "SRID=4326;POINT (103.903202683028 1.38706146494863)",
      "address": "1 Rivervale Street",
      "postal_code": "545088",
      "phone_number": "6881688",
      "email_address": "nsps@moe.edu.sg",
      "website_url": "http://www.northspringpri.moe.edu.sg"
    }
  },
  {
    "model": "schools.primaryschool",
    "pk": 157,
    "fields": {
      "name": "Montfort Junior School",
      "geometry": "SRID=4326;POINT (103.889307782925 1.3738244407598)",
      "address": "52 Hougang Avenue 8",
      "postal_code": "538786",
      "phone_number": "6510158",
      "email_address": "montfort_js@moe.edu.sg",
      "website_url": "http://www.montfortjunior.moe.edu.sg/"
    }
  },
  {
    "model": "schools.primaryschool",
    "pk": 158,
    "fields": {
      "name": "Methodist Girls\u2019 School (Primary)",
      "geometry": "SRID=4326;POINT (103.783393009829 1.33294800935715)",
      "address": "11 Blackmore Drive",
      "postal_code": "599986",
      "phone_number": "6469480",
      "email_address": "mgps@moe.edu.sg",
      "website_url": "http://www.mgs.moe.edu.sg/"
    }
  },
  {
    "model": "schools.primaryschool",
    "pk": 159,
    "fields": {
      "name": "Meridian Primary School",
      "geometry": "SRID=4326;POINT (103.934889078246 1.37552831658488)",
      "address": "20 Pasir Ris St 71",
      "postal_code": "518798",
      "phone_number": "6583212",
      "email_address": "meridian_ps@moe.edu.sg",
      "website_url": "http://www.meridianpri.moe.edu.sg/"
    }
  },
  {
    "model": "schools.primaryschool",
    "pk": 160,
    "fields": {
      "name": "Marymount Convent School",
      "geometry": "SRID=4326;POINT (103.840021064426 1.34036676987376)",
      "address": "20 Marymount Road",
      "postal_code": "297754",
      "phone_number": "6256670",
      "email_address": "mmcs@moe.edu.sg",
      "website_url": "http://www.marymountconvent.moe.edu.sg"
    }
  },
  {
    "model": "schools.primaryschool",
    "pk": 161,
    "fields": {
      "name": "Maha Bodhi School",
      "geometry": "SRID=4326;POINT (103.901298737314 1.32847086658388)",
      "address": "10 Ubi Avenue 1",
      "postal_code": "408931",
      "phone_number": "6744211",
      "email_address": "mbs@moe.edu.sg",
      "website_url": "http://www.mahabodhi.moe.edu.sg/"
    }
  },
  {
    "model": "schools.primaryschool",
    "pk": 162,
    "fields": {
      "name": "Kranji Primary School",
      "geometry": "SRID=4326;POINT (103.747362720939 1.39356050497107)",
      "address": "11 Choa Chu Kang Street 54",
      "postal_code": "689189",
      "phone_number": "6763481",
      "email_address": "kranji_ps@moe.edu.sg",
      "website_url": "http://kranjipri.moe.edu.sg"
    }
  },
  {
    "model": "schools.primaryschool",
    "pk": 163,
    "fields": {
      "name": "Kheng Cheng School",
      "geometry": "SRID=4326;POINT (103.847148501824 1.33733819356392)",
      "address": "15 Lorong 3 Toa Payoh",
      "postal_code": "319580",
      "phone_number": "6255250",
      "email_address": "kcs@moe.edu.sg",
      "website_url": "http://www.khengcheng.moe.edu.sg/"
    }
  },
  {
    "model": "schools.primaryschool",
    "pk": 164,
    "fields": {
      "name": "Jiemin Primary School",
      "geometry": "SRID=4326;POINT (103.830427933344 1.42768620385279)",
      "address": "2  Yishun Street 71",
      "postal_code": "768515",
      "phone_number": "6758647",
      "email_address": "jiemin_ps@moe.edu.sg",
      "website_url": "http://www.jieminpri.moe.edu.sg"
    }
  },
  {
    "model": "schools.primaryschool",
    "pk": 165,
    "fields": {
      "name": "Innova Primary School",
      "geometry": "SRID=4326;POINT (103.790607539185 1.42896700684853)",
      "address": "80 Woodlands Drive 17",
      "postal_code": "737888",
      "phone_number": "6894469",
      "email_address": "innova_pri@moe.edu.sg",
      "website_url": "http://www.innovapri.moe.edu.sg/"
    }
  },
  {
    "model": "schools.primaryschool",
    "pk": 166,
    "fields": {
      "name": "Horizon Primary School",
      "geometry": "SRID=4326;POINT (103.913404855665 1.39955003449202)",
      "address": "61 Edgedale Plains",
      "postal_code": "828819",
      "phone_number": "6753541",
      "email_address": "horizon_ps@moe.edu.sg",
      "website_url": "http://www.horizonpri.moe.edu.sg"
    }
  },
  {
    "model": "schools.primaryschool",
    "pk": 167,
    "fields": {
      "name": "Greenwood Primary School",
      "geometry": "SRID=4326;POINT (103.804725587384 1.43989958331785)",
      "address": "11 Woodlands Dr 62",
      "postal_code": "737942",
      "phone_number": "6366615",
      "email_address": "greenwood_ps@moe.edu.sg",
      "website_url": "http://www.greenwoodpri.moe.edu.sg"
    }
  },
  {
    "model": "schools.primaryschool",
    "pk": 168,
    "fields": {
      "name": "Greenridge Primary School",
      "geometry": "SRID=4326;POINT (103.767794469258 1.38588921936923)",
      "address": "11 Jelapang Road",
      "postal_code": "677744",
      "phone_number": "6760426",
      "email_address": "grps@moe.edu.sg",
      "website_url": "http://www.greenridgepri.moe.edu.sg"
    }
  },
  {
    "model": "schools.primaryschool",
    "pk": 169,
    "fields": {
      "name": "Gongshang Primary School",
      "geometry": "SRID=4326;POINT (103.949116145623 1.35723721033471)",
      "address": "1 Tampines Street 42",
      "postal_code": "529176",
      "phone_number": "6783119",
      "email_address": "gsps@moe.edu.sg",
      "website_url": "http://www.gongshangpri.moe.edu.sg"
    }
  },
  {
    "model": "schools.primaryschool",
    "pk": 170,
    "fields": {
      "name": "Geylang Methodist School (Primary)",
      "geometry": "SRID=4326;POINT (103.883845744916 1.31759126757286)",
      "address": "4 Geylang East Central",
      "postal_code": "389706",
      "phone_number": "6748674",
      "email_address": "gmsp@moe.edu.sg",
      "website_url": "http://geylangmethodistpri.moe.edu.sg"
    }
  },
  {
    "model": "schools.primaryschool",
    "pk": 171,
    "fields": {
      "name": "First Toa Payoh Primary School",
      "geometry": "SRID=4326;POINT (103.85552990727 1.34032299527313)",
      "address": "7 Lorong 8 Toa Payoh",
      "postal_code": "319252",
      "phone_number": "6256782",
      "email_address": "ftpps@moe.edu.sg",
      "website_url": "http://www.firsttoapayohpri.moe.edu.sg"
    }
  },
  {
    "model": "schools.primaryschool",
    "pk": 172,
    "fields": {
      "name": "Fernvale Primary School",
      "geometry": "SRID=4326;POINT (103.874445458032 1.39030227963798)",
      "address": "1 Fernvale Lane",
      "postal_code": "797701",
      "phone_number": "6315305",
      "email_address": "fernvale_ps@moe.edu.sg",
      "website_url": "http://www.fernvalepri.moe.edu.sg"
    }
  },
  {
    "model": "schools.primaryschool",
    "pk": 173,
    "fields": {
      "name": "Farrer Park Primary School",
      "geometry": "SRID=4326;POINT (103.850766169884 1.31236855965766)",
      "address": "2 Farrer Park Road",
      "postal_code": "217567",
      "phone_number": "6295227",
      "email_address": "fpps@moe.edu.sg",
      "website_url": "http://www.farrerparkpri.moe.edu.sg",
      "kindergartens": [
        455
      ]
    }
  },
  {
    "model": "schools.primaryschool",
    "pk": 174,
    "fields": {
      "name": "Eunos Primary School",
      "geometry": "SRID=4326;POINT (103.904541254016 1.32447629876371)",
      "address": "95 Jalan Eunos",
      "postal_code": "419529",
      "phone_number": "6746333",
      "email_address": "eunos_ps@moe.edu.sg",
      "website_url": "http://www.eunospri.moe.edu.sg"
    }
  },
  {
    "model": "schools.primaryschool",
    "pk": 175,
    "fields": {
      "name": "Edgefield Primary School",
      "geometry": "SRID=4326;POINT (103.907847599114 1.40009139510997)",
      "address": "41 Edgefield Plains",
      "postal_code": "828869",
      "phone_number": "6312609",
      "email_address": "edgefield_ps@moe.edu.sg",
      "website_url": "http://www.edgefieldpri.moe.edu.sg"
    }
  },
  {
    "model": "schools.primaryschool",
    "pk": 176,
    "fields": {
      "name": "East Spring Primary School",
      "geometry": "SRID=4326;POINT (103.961676849165 1.35268400746359)",
      "address": "31 Tampines St 33",
      "postal_code": "529258",
      "phone_number": "6786619",
      "email_address": "esps@moe.edu.sg",
      "website_url": "http://www.eastspringpri.moe.edu.sg"
    }
  },
  {
    "model": "schools.primaryschool",
    "pk": 177,
    "fields": {
      "name": "Dazhong Primary School",
      "geometry": "SRID=4326;POINT (103.74847210784 1.35917974472771)",
      "address": "35 Bukit Batok Street 31",
      "postal_code": "659441",
      "phone_number": "6565800",
      "email_address": "dazhong_ps@moe.edu.sg",
      "website_url": "http://www.dazhongpri.moe.edu.sg",
      "kindergartens": [
        454
      ]
    }
  },
  {
    "model": "schools.primaryschool",
    "pk": 178,
    "fields": {
      "name": "Damai Primary School",
      "geometry": "SRID=4326;POINT (103.921270169613 1.33546106800408)",
      "address": "52 Bedok Reservoir Crescent",
      "postal_code": "479226",
      "phone_number": "6445648",
      "email_address": "damai_ps@moe.edu.sg",
      "website_url": "http://www.damaipri.moe.edu.sg"
    }
  },
  {
    "model": "schools.primaryschool",
    "pk": 179,
    "fields": {
      "name": "Concord Primary School",
      "geometry": "SRID=4326;POINT (103.736225440727 1.38000806197243)",
      "address": "3 Choa Chu Kang Ave 4",
      "postal_code": "689814",
      "phone_number": "6763213",
      "email_address": "concord_ps@moe.edu.sg",
      "website_url": "http://www.concordpri.moe.edu.sg"
    }
  },
  {
    "model": "schools.primaryschool",
    "pk": 180,
    "fields": {
      "name": "Compassvale Primary School",
      "geometry": "SRID=4326;POINT (103.897812229905 1.39444529636568)",
      "address": "21 Compassvale St",
      "postal_code": "545091",
      "phone_number": "6388281",
      "email_address": "cvps@moe.edu.sg",
      "website_url": "http://www.compassvalepri.moe.edu.sg"
    }
  },
  {
    "model": "schools.primaryschool",
    "pk": 181,
    "fields": {
      "name": "Catholic High School (Primary Section)",
      "geometry": "SRID=4326;POINT (103.844874676599 1.35472307471664)",
      "address": "9 Bishan Street 22",
      "postal_code": "579767",
      "phone_number": "6458986",
      "email_address": "chs@moe.edu.sg",
      "website_url": "http://www.catholichigh.moe.edu.sg"
    }
  },
  {
    "model": "schools.primaryschool",
    "pk": 182,
    "fields": {
      "name": "Bukit Timah Primary School",
      "geometry": "SRID=4326;POINT (103.767243310781 1.33751860013149)",
      "address": "111 Lorong Kismis",
      "postal_code": "598112",
      "phone_number": "6466286",
      "email_address": "bukittimahps@moe.edu.sg",
      "website_url": "http://www.bukittimahpri.moe.edu.sg"
    }
  },
  {
    "model": "schools.primaryschool",
    "pk": 183,
    "fields": {
      "name": "Blangah Rise Primary School",
      "geometry": "SRID=4326;POINT (103.808628536055 1.27612047869293)",
      "address": "91 Telok Blangah Heights",
      "postal_code": "109100",
      "phone_number": "6271738",
      "email_address": "brps@moe.edu.sg",
      "website_url": "http://www.blangahrisepri.moe.edu.sg",
      "kindergartens": [
        453
      ]
    }
  },
  {
    "model": "schools.primaryschool",
    "pk": 184,
    "fields": {
      "name": "Alexandra Primary School",
      "geometry": "SRID=4326;POINT (103.824424680531 1.29133439161336)",
      "address": "2A Prince Charles Crescent",
      "postal_code": "159016",
      "phone_number": "6248540",
      "email_address": "alexandra_ps@moe.edu.sg",
      "website_url": "http://alexandrapri.moe.edu.sg"
    }
  },
  {
    "model": "schools.primaryschool",
    "pk": 185,
    "fields": {
      "name": "Ahmad Ibrahim Primary School",
      "geometry": "SRID=4326;POINT (103.832942401086 1.4331527154352)",
      "address": "10 Yishun Street 11",
      "postal_code": "768643",
      "phone_number": "6759290",
      "email_address": "aips@moe.edu.sg",
      "website_url": "http://www.ahmadibrahimpri.moe.edu.sg"
    }
  }
]